$GPRMC,172613.00,A,0548.3578,N,10208.8010,E,10.8,187.8,260825,,,A*68
$GPRMC,172616.60,A,0548.3471,N,10208.7995,E,10.8,187.8,260825,,,A*68
$GPRMC,172620.20,A,0548.3364,N,10208.7981,E,10.8,187.8,260825,,,A*6F
$GPRMC,172623.80,A,0548.3257,N,10208.7966,E,10.8,187.8,260825,,,A*6E
$GPRMC,172627.40,A,0548.3150,N,10208.7951,E,10.8,187.8,260825,,,A*66
$GPRMC,172631.00,A,0548.3043,N,10208.7936,E,10.8,187.8,260825,,,A*67
$GPRMC,172634.60,A,0548.2936,N,10208.7922,E,10.8,187.7,260825,,,A*64
$GPRMC,172638.20,A,0548.2830,N,10208.7907,E,10.8,187.1,260825,,,A*6A
$GPRMC,172641.80,A,0548.2722,N,10208.7894,E,10.8,187.1,260825,,,A*69
$GPRMC,172645.40,A,0548.2615,N,10208.7880,E,10.8,187.1,260825,,,A*61
$GPRMC,172649.00,A,0548.2508,N,10208.7867,E,10.8,187.1,260825,,,A*6F
$GPRMC,172652.60,A,0548.2401,N,10208.7854,E,10.8,187.1,260825,,,A*6B
$GPRMC,172656.20,A,0548.2294,N,10208.7840,E,10.8,187.1,260825,,,A*64
$GPRMC,172659.80,A,0548.2187,N,10208.7827,E,10.8,187.5,260825,,,A*65
$GPRMC,172703.40,A,0548.2080,N,10208.7813,E,10.8,187.5,260825,,,A*66
$GPRMC,172707.00,A,0548.1973,N,10208.7798,E,10.8,187.5,260825,,,A*6C
$GPRMC,172710.60,A,0548.1866,N,10208.7784,E,10.8,187.5,260825,,,A*64
$GPRMC,172714.20,A,0548.1759,N,10208.7770,E,10.8,187.5,260825,,,A*6C
$GPRMC,172717.80,A,0548.1652,N,10208.7756,E,10.8,187.5,260825,,,A*6B
$GPRMC,172721.40,A,0548.1545,N,10208.7742,E,10.8,187.5,260825,,,A*62
$GPRMC,172725.00,A,0548.1438,N,10208.7728,E,10.8,187.5,260825,,,A*65
$GPRMC,172728.60,A,0548.1331,N,10208.7713,E,10.8,187.5,260825,,,A*68
$GPRMC,172732.20,A,0548.1224,N,10208.7699,E,10.8,187.5,260825,,,A*61
$GPRMC,172735.80,A,0548.1117,N,10208.7685,E,10.8,187.5,260825,,,A*62
$GPRMC,172739.40,A,0548.1010,N,10208.7671,E,10.8,187.5,260825,,,A*6F
$GPRMC,172743.00,A,0548.0903,N,10208.7657,E,10.8,187.5,260825,,,A*68
$GPRMC,172746.60,A,0548.0796,N,10208.7642,E,10.8,187.5,260825,,,A*6D
$GPRMC,172750.20,A,0548.0689,N,10208.7628,E,10.8,187.5,260825,,,A*6D
$GPRMC,172753.80,A,0548.0582,N,10208.7614,E,10.8,187.0,260825,,,A*66
$GPRMC,172757.40,A,0548.0475,N,10208.7601,E,10.8,186.7,260825,,,A*65
$GPRMC,172801.00,A,0548.0368,N,10208.7588,E,10.8,186.9,260825,,,A*6A
$GPRMC,172804.60,A,0548.0261,N,10208.7575,E,10.8,187.0,260825,,,A*6B
$GPRMC,172808.20,A,0548.0154,N,10208.7562,E,10.8,187.0,260825,,,A*60
$GPRMC,172811.80,A,0548.0046,N,10208.7549,E,10.8,187.0,260825,,,A*69
$GPRMC,172815.40,A,0547.9939,N,10208.7536,E,10.8,187.0,260825,,,A*6E
$GPRMC,172819.00,A,0547.9832,N,10208.7523,E,10.8,187.0,260825,,,A*68
$GPRMC,172822.60,A,0547.9725,N,10208.7509,E,10.8,187.0,260825,,,A*67
$GPRMC,172826.20,A,0547.9618,N,10208.7496,E,10.8,187.0,260825,,,A*6F
$GPRMC,172829.80,A,0547.9511,N,10208.7483,E,10.8,187.0,260825,,,A*64
$GPRMC,172833.40,A,0547.9404,N,10208.7470,E,10.8,187.0,260825,,,A*6A
$GPRMC,172837.00,A,0547.9297,N,10208.7457,E,10.8,187.0,260825,,,A*63
$GPRMC,172840.60,A,0547.9189,N,10208.7444,E,10.8,187.0,260825,,,A*6B
$GPRMC,172844.20,A,0547.9082,N,10208.7431,E,10.8,185.9,260825,,,A*68
$GPRMC,172847.80,A,0547.8975,N,10208.7419,E,10.8,185.7,260825,,,A*65
$GPRMC,172851.40,A,0547.8868,N,10208.7409,E,10.8,186.6,260825,,,A*60
$GPRMC,172855.00,A,0547.8760,N,10208.7396,E,10.8,187.4,260825,,,A*65
$GPRMC,172858.60,A,0547.8653,N,10208.7382,E,10.8,187.4,260825,,,A*6A
$GPRMC,172902.20,A,0547.8546,N,10208.7368,E,10.8,187.4,260825,,,A*63
$GPRMC,172905.80,A,0547.8439,N,10208.7354,E,10.8,187.4,260825,,,A*68
$GPRMC,172909.40,A,0547.8332,N,10208.7340,E,10.8,187.4,260825,,,A*61
$GPRMC,172913.00,A,0547.8225,N,10208.7327,E,10.8,187.4,260825,,,A*68
$GPRMC,172916.60,A,0547.8118,N,10208.7313,E,10.8,187.4,260825,,,A*61
$GPRMC,172920.20,A,0547.8011,N,10208.7299,E,10.8,187.4,260825,,,A*6B
$GPRMC,172923.80,A,0547.7904,N,10208.7285,E,10.8,187.4,260825,,,A*6D
$GPRMC,172927.40,A,0547.7797,N,10208.7271,E,10.8,187.4,260825,,,A*6A
$GPRMC,172931.00,A,0547.7690,N,10208.7257,E,10.8,187.4,260825,,,A*6B
$GPRMC,172934.60,A,0547.7583,N,10208.7243,E,10.8,187.2,260825,,,A*6A
$GPRMC,172938.20,A,0547.7476,N,10208.7230,E,10.8,186.8,260825,,,A*66
$GPRMC,172941.80,A,0547.7369,N,10208.7217,E,10.8,186.8,260825,,,A*6E
$GPRMC,172945.40,A,0547.7262,N,10208.7204,E,10.8,186.8,260825,,,A*6E
$GPRMC,172949.00,A,0547.7155,N,10208.7191,E,10.8,186.8,260825,,,A*6E
$GPRMC,172952.60,A,0547.7047,N,10208.7178,E,10.8,186.8,260825,,,A*67
$GPRMC,172956.20,A,0547.6940,N,10208.7165,E,10.8,186.8,260825,,,A*64
$GPRMC,172959.80,A,0547.6833,N,10208.7152,E,10.8,186.8,260825,,,A*60
$GPRMC,173003.40,A,0547.6726,N,10208.7139,E,10.8,186.8,260825,,,A*6D
$GPRMC,173007.00,A,0547.6619,N,10208.7126,E,10.8,186.8,260825,,,A*6E
$GPRMC,173010.60,A,0547.6512,N,10208.7114,E,10.8,186.9,260825,,,A*66
$GPRMC,173014.20,A,0547.6404,N,10208.7101,E,10.8,187.1,260825,,,A*6D
$GPRMC,173017.80,A,0547.6297,N,10208.7087,E,10.8,187.1,260825,,,A*67
$GPRMC,173021.40,A,0547.6190,N,10208.7074,E,10.8,187.1,260825,,,A*66
$GPRMC,173025.00,A,0547.6083,N,10208.7060,E,10.8,187.1,260825,,,A*60
$GPRMC,173028.60,A,0547.5976,N,10208.7047,E,10.8,187.1,260825,,,A*6E
$GPRMC,173032.20,A,0547.5869,N,10208.7033,E,10.8,187.1,260825,,,A*6D
$GPRMC,173035.80,A,0547.5762,N,10208.7020,E,10.8,187.1,260825,,,A*66
$GPRMC,173039.40,A,0547.5655,N,10208.7006,E,10.8,187.1,260825,,,A*67
$GPRMC,173043.00,A,0547.5548,N,10208.6993,E,10.8,187.1,260825,,,A*65
$GPRMC,173046.60,A,0547.5441,N,10208.6979,E,10.8,187.1,260825,,,A*6A
$GPRMC,173050.20,A,0547.5334,N,10208.6966,E,10.8,187.1,260825,,,A*62
$GPRMC,173053.80,A,0547.5227,N,10208.6952,E,10.8,187.1,260825,,,A*6F
$GPRMC,173057.40,A,0547.5120,N,10208.6939,E,10.8,187.1,260825,,,A*6E
$GPRMC,173101.00,A,0547.5012,N,10208.6925,E,10.8,187.1,260825,,,A*65
$GPRMC,173104.60,A,0547.4905,N,10208.6912,E,10.8,187.1,260825,,,A*6C
$GPRMC,173108.20,A,0547.4798,N,10208.6898,E,10.8,187.1,260825,,,A*6D
$GPRMC,173111.80,A,0547.4691,N,10208.6885,E,10.8,187.1,260825,,,A*6B
$GPRMC,173115.40,A,0547.4584,N,10208.6871,E,10.8,187.1,260825,,,A*6F
$GPRMC,173119.00,A,0547.4477,N,10208.6858,E,10.8,187.1,260825,,,A*61
$GPRMC,173122.60,A,0547.4370,N,10208.6844,E,10.8,187.1,260825,,,A*62
$GPRMC,173126.20,A,0547.4263,N,10208.6831,E,10.8,187.1,260825,,,A*63
$GPRMC,173129.80,A,0547.4156,N,10208.6817,E,10.8,187.1,260825,,,A*67
$GPRMC,173133.40,A,0547.4049,N,10208.6804,E,10.8,187.1,260825,,,A*6D
$GPRMC,173137.00,A,0547.3942,N,10208.6790,E,10.8,187.1,260825,,,A*6A
$GPRMC,173140.60,A,0547.3835,N,10208.6777,E,10.8,187.1,260825,,,A*64
$GPRMC,173144.20,A,0547.3727,N,10208.6763,E,10.8,187.1,260825,,,A*6D
$GPRMC,173147.80,A,0547.3620,N,10208.6750,E,10.8,187.1,260825,,,A*62
$GPRMC,173151.40,A,0547.3513,N,10208.6736,E,10.8,187.1,260825,,,A*6A
$GPRMC,173155.00,A,0547.3406,N,10208.6723,E,10.8,187.1,260825,,,A*6B
$GPRMC,173158.60,A,0547.3299,N,10208.6709,E,10.8,187.1,260825,,,A*68
$GPRMC,173202.20,A,0547.3192,N,10208.6696,E,10.8,187.1,260825,,,A*6F
$GPRMC,173205.80,A,0547.3085,N,10208.6682,E,10.8,187.1,260825,,,A*60
$GPRMC,173209.40,A,0547.2978,N,10208.6669,E,10.8,187.1,260825,,,A*6F
$GPRMC,173213.00,A,0547.2871,N,10208.6655,E,10.8,187.1,260825,,,A*67
$GPRMC,173216.60,A,0547.2764,N,10208.6642,E,10.8,187.1,260825,,,A*69
$GPRMC,173220.20,A,0547.2657,N,10208.6628,E,10.8,187.1,260825,,,A*65
$GPRMC,173223.80,A,0547.2550,N,10208.6615,E,10.8,187.1,260825,,,A*66
$GPRMC,173227.40,A,0547.2443,N,10208.6601,E,10.8,187.1,260825,,,A*68
$GPRMC,173231.00,A,0547.2335,N,10208.6588,E,10.8,187.1,260825,,,A*6F
$GPRMC,173234.60,A,0547.2228,N,10208.6574,E,10.8,187.1,260825,,,A*62
$GPRMC,173238.20,A,0547.2121,N,10208.6561,E,10.8,187.1,260825,,,A*64
$GPRMC,173241.80,A,0547.2014,N,10208.6547,E,10.8,186.8,260825,,,A*6B
$GPRMC,173245.40,A,0547.1907,N,10208.6535,E,10.8,186.5,260825,,,A*63
$GPRMC,173249.00,A,0547.1800,N,10208.6522,E,10.8,186.9,260825,,,A*67
$GPRMC,173252.60,A,0547.1693,N,10208.6509,E,10.8,187.1,260825,,,A*6F
$GPRMC,173256.20,A,0547.1586,N,10208.6496,E,10.8,187.1,260825,,,A*6F
$GPRMC,173259.80,A,0547.1478,N,10208.6482,E,10.8,187.1,260825,,,A*6F
$GPRMC,173303.40,A,0547.1371,N,10208.6469,E,10.8,187.1,260825,,,A*66
$GPRMC,173307.00,A,0547.1264,N,10208.6456,E,10.8,187.1,260825,,,A*6F
$GPRMC,173310.60,A,0547.1157,N,10208.6442,E,10.8,187.1,260825,,,A*69
$GPRMC,173314.20,A,0547.1050,N,10208.6429,E,10.8,187.1,260825,,,A*62
$GPRMC,173317.80,A,0547.0943,N,10208.6415,E,10.8,187.1,260825,,,A*6E
$GPRMC,173321.40,A,0547.0836,N,10208.6402,E,10.8,187.1,260825,,,A*62
$GPRMC,173325.00,A,0547.0729,N,10208.6388,E,10.8,187.1,260825,,,A*66
$GPRMC,173328.60,A,0547.0622,N,10208.6375,E,10.8,187.1,260825,,,A*65
$GPRMC,173332.20,A,0547.0515,N,10208.6362,E,10.8,187.1,260825,,,A*6B
$GPRMC,173335.80,A,0547.0408,N,10208.6348,E,10.8,187.1,260825,,,A*63
$GPRMC,173339.40,A,0547.0301,N,10208.6335,E,10.8,187.1,260825,,,A*67
$GPRMC,173343.00,A,0547.0193,N,10208.6321,E,10.8,187.1,260825,,,A*62
$GPRMC,173346.60,A,0547.0086,N,10208.6308,E,10.8,187.1,260825,,,A*6F
$GPRMC,173350.20,A,0546.9979,N,10208.6294,E,10.8,187.1,260825,,,A*69
$GPRMC,173353.80,A,0546.9872,N,10208.6281,E,10.8,187.1,260825,,,A*6E
$GPRMC,173357.40,A,0546.9765,N,10208.6268,E,10.8,187.1,260825,,,A*68
$GPRMC,173401.00,A,0546.9658,N,10208.6254,E,10.8,187.1,260825,,,A*68
$GPRMC,173404.60,A,0546.9551,N,10208.6241,E,10.8,187.1,260825,,,A*65
$GPRMC,173408.20,A,0546.9444,N,10208.6227,E,10.8,187.1,260825,,,A*68
$GPRMC,173411.80,A,0546.9337,N,10208.6214,E,10.8,187.1,260825,,,A*69
$GPRMC,173415.40,A,0546.9230,N,10208.6201,E,10.8,187.1,260825,,,A*63
$GPRMC,173419.00,A,0546.9123,N,10208.6187,E,10.8,187.1,260825,,,A*67
$GPRMC,173422.60,A,0546.9015,N,10208.6174,E,10.8,187.1,260825,,,A*61
$GPRMC,173426.20,A,0546.8908,N,10208.6160,E,10.8,187.1,260825,,,A*60
$GPRMC,173429.80,A,0546.8801,N,10208.6147,E,10.8,187.1,260825,,,A*68
$GPRMC,173433.40,A,0546.8694,N,10208.6133,E,10.8,187.1,260825,,,A*6E
$GPRMC,173437.00,A,0546.8587,N,10208.6120,E,10.8,187.1,260825,,,A*6D
$GPRMC,173440.60,A,0546.8480,N,10208.6107,E,10.8,187.1,260825,,,A*68
$GPRMC,173444.20,A,0546.8373,N,10208.6093,E,10.8,187.1,260825,,,A*6F
$GPRMC,173447.80,A,0546.8266,N,10208.6080,E,10.8,187.1,260825,,,A*61
$GPRMC,173451.40,A,0546.8159,N,10208.6066,E,10.8,187.1,260825,,,A*6D
$GPRMC,173455.00,A,0546.8052,N,10208.6053,E,10.8,187.1,260825,,,A*61
$GPRMC,173458.60,A,0546.7945,N,10208.6040,E,10.8,187.1,260825,,,A*68
$GPRMC,173502.20,A,0546.7837,N,10208.6026,E,10.8,187.1,260825,,,A*66
$GPRMC,173505.80,A,0546.7730,N,10208.6013,E,10.8,187.1,260825,,,A*65
$GPRMC,173509.40,A,0546.7623,N,10208.5999,E,10.8,187.1,260825,,,A*6E
$GPRMC,173513.00,A,0546.7516,N,10208.5986,E,10.8,187.1,260825,,,A*6A
$GPRMC,173516.60,A,0546.7409,N,10208.5973,E,10.8,187.0,260825,,,A*6D
$GPRMC,173520.20,A,0546.7302,N,10208.5959,E,10.8,187.0,260825,,,A*68
$GPRMC,173523.80,A,0546.7195,N,10208.5946,E,10.8,187.0,260825,,,A*63
$GPRMC,173527.40,A,0546.7088,N,10208.5933,E,10.8,187.0,260825,,,A*64
$GPRMC,173531.00,A,0546.6981,N,10208.5919,E,10.8,187.0,260825,,,A*6E
$GPRMC,173534.60,A,0546.6874,N,10208.5906,E,10.8,187.0,260825,,,A*68
$GPRMC,173538.20,A,0546.6766,N,10208.5893,E,10.8,187.0,260825,,,A*61
$GPRMC,173541.80,A,0546.6659,N,10208.5879,E,10.8,187.0,260825,,,A*6C
$GPRMC,173545.40,A,0546.6552,N,10208.5866,E,10.8,187.0,260825,,,A*62
$GPRMC,173549.00,A,0546.6445,N,10208.5853,E,10.8,188.1,260825,,,A*65
$GPRMC,173552.60,A,0546.6338,N,10208.5838,E,10.8,188.8,260825,,,A*60
$GPRMC,173556.20,A,0546.6232,N,10208.5821,E,10.8,191.8,260825,,,A*6B
$GPRMC,173559.80,A,0546.6126,N,10208.5799,E,10.8,193.6,260825,,,A*68
$GPRMC,173603.40,A,0546.6021,N,10208.5773,E,10.8,196.7,260825,,,A*6E
$GPRMC,173607.00,A,0546.5918,N,10208.5742,E,10.8,196.7,260825,,,A*6C
$GPRMC,173610.60,A,0546.5814,N,10208.5711,E,10.8,198.4,260825,,,A*6A
$GPRMC,173614.20,A,0546.5712,N,10208.5677,E,10.8,200.6,260825,,,A*62
$GPRMC,173617.80,A,0546.5611,N,10208.5639,E,10.8,200.6,260825,,,A*63
$GPRMC,173621.40,A,0546.5510,N,10208.5601,E,10.8,202.0,260825,,,A*67
$GPRMC,173625.00,A,0546.5410,N,10208.5560,E,10.8,205.4,260825,,,A*61
$GPRMC,173628.60,A,0546.5313,N,10208.5513,E,10.8,209.3,260825,,,A*61
$GPRMC,173632.20,A,0546.5218,N,10208.5460,E,10.8,211.9,260825,,,A*62
$GPRMC,173635.80,A,0546.5127,N,10208.5403,E,10.8,212.8,260825,,,A*67
$GPRMC,173639.40,A,0546.5036,N,10208.5344,E,10.8,212.5,260825,,,A*6F
$GPRMC,173643.00,A,0546.4945,N,10208.5286,E,10.8,212.1,260825,,,A*61
$GPRMC,173646.60,A,0546.4854,N,10208.5228,E,10.8,212.1,260825,,,A*67
$GPRMC,173650.20,A,0546.4762,N,10208.5171,E,10.8,212.1,260825,,,A*61
$GPRMC,173653.80,A,0546.4671,N,10208.5113,E,10.8,212.1,260825,,,A*6F
$GPRMC,173657.40,A,0546.4580,N,10208.5055,E,10.8,212.1,260825,,,A*69
$GPRMC,173701.00,A,0546.4488,N,10208.4998,E,10.8,212.1,260825,,,A*6F
$GPRMC,173704.60,A,0546.4397,N,10208.4940,E,10.8,212.1,260825,,,A*60
$GPRMC,173708.20,A,0546.4305,N,10208.4882,E,10.8,212.1,260825,,,A*6C
$GPRMC,173711.80,A,0546.4214,N,10208.4825,E,10.8,212.2,260825,,,A*61
$GPRMC,173715.40,A,0546.4123,N,10208.4767,E,10.8,212.9,260825,,,A*6C
$GPRMC,173719.00,A,0546.4032,N,10208.4708,E,10.8,212.9,260825,,,A*6C
$GPRMC,173722.60,A,0546.3942,N,10208.4649,E,10.8,212.9,260825,,,A*6F
$GPRMC,173726.20,A,0546.3851,N,10208.4590,E,10.8,212.9,260825,,,A*6B
$GPRMC,173729.80,A,0546.3760,N,10208.4531,E,10.8,212.9,260825,,,A*68
$GPRMC,173733.40,A,0546.3670,N,10208.4472,E,10.8,212.9,260825,,,A*69
$GPRMC,173737.00,A,0546.3579,N,10208.4413,E,10.8,212.9,260825,,,A*64
$GPRMC,173740.60,A,0546.3489,N,10208.4354,E,10.8,212.6,260825,,,A*67
$GPRMC,173744.20,A,0546.3398,N,10208.4296,E,10.8,213.0,260825,,,A*68
$GPRMC,173747.80,A,0546.3307,N,10208.4237,E,10.8,211.1,260825,,,A*6F
$GPRMC,173751.40,A,0546.3215,N,10208.4180,E,10.8,210.8,260825,,,A*61
$GPRMC,173755.00,A,0546.3122,N,10208.4125,E,10.8,209.6,260825,,,A*6F
$GPRMC,173758.60,A,0546.3028,N,10208.4071,E,10.8,203.1,260825,,,A*62
$GPRMC,173802.20,A,0546.2929,N,10208.4029,E,10.8,203.1,260825,,,A*62
$GPRMC,173805.80,A,0546.2830,N,10208.3986,E,10.8,203.1,260825,,,A*6D
$GPRMC,173809.40,A,0546.2731,N,10208.3944,E,10.8,199.6,260825,,,A*6A
$GPRMC,173813.00,A,0546.2629,N,10208.3908,E,10.8,199.6,260825,,,A*65
$GPRMC,173816.60,A,0546.2527,N,10208.3871,E,10.8,197.4,260825,,,A*68
$GPRMC,173820.20,A,0546.2424,N,10208.3839,E,10.8,196.9,260825,,,A*6B
$GPRMC,173823.80,A,0546.2321,N,10208.3807,E,10.8,193.5,260825,,,A*64
$GPRMC,173827.40,A,0546.2216,N,10208.3782,E,10.8,190.0,260825,,,A*6D
$GPRMC,173831.00,A,0546.2110,N,10208.3763,E,10.8,190.0,260825,,,A*64
$GPRMC,173834.60,A,0546.2004,N,10208.3744,E,10.8,187.5,260825,,,A*65
$GPRMC,173838.20,A,0546.1897,N,10208.3730,E,10.8,184.8,260825,,,A*61
$GPRMC,173841.80,A,0546.1789,N,10208.3721,E,10.8,183.2,260825,,,A*68
$GPRMC,173845.40,A,0546.1682,N,10208.3715,E,10.8,181.6,260825,,,A*6B
$GPRMC,173849.00,A,0546.1574,N,10208.3712,E,10.8,180.1,260825,,,A*68
$GPRMC,173852.60,A,0546.1466,N,10208.3712,E,10.8,177.7,260825,,,A*68
$GPRMC,173856.20,A,0546.1358,N,10208.3716,E,10.8,175.6,260825,,,A*65
$GPRMC,173859.80,A,0546.1250,N,10208.3724,E,10.8,174.9,260825,,,A*66
$GPRMC,173903.40,A,0546.1143,N,10208.3734,E,10.8,170.5,260825,,,A*6C
$GPRMC,173907.00,A,0546.1037,N,10208.3752,E,10.8,168.6,260825,,,A*64
$GPRMC,173910.60,A,0546.0931,N,10208.3773,E,10.8,166.0,260825,,,A*61
$GPRMC,173914.20,A,0546.0826,N,10208.3800,E,10.8,164.9,260825,,,A*66
$GPRMC,173917.80,A,0546.0722,N,10208.3828,E,10.8,164.9,260825,,,A*6E
$GPRMC,173921.40,A,0546.0618,N,10208.3856,E,10.8,164.9,260825,,,A*66
$GPRMC,173925.00,A,0546.0514,N,10208.3885,E,10.8,159.7,260825,,,A*67
$GPRMC,173928.60,A,0546.0412,N,10208.3922,E,10.8,158.9,260825,,,A*68
$GPRMC,173932.20,A,0546.0312,N,10208.3961,E,10.8,158.9,260825,,,A*67
$GPRMC,173935.80,A,0546.0211,N,10208.4000,E,10.8,154.3,260825,,,A*67
$GPRMC,173939.40,A,0546.0114,N,10208.4047,E,10.8,153.4,260825,,,A*62
$GPRMC,173943.00,A,0546.0017,N,10208.4096,E,10.8,148.3,260825,,,A*68
$GPRMC,173946.60,A,0545.9926,N,10208.4153,E,10.8,147.5,260825,,,A*6B
$GPRMC,173950.20,A,0545.9835,N,10208.4211,E,10.8,146.2,260825,,,A*68
$GPRMC,173953.80,A,0545.9745,N,10208.4272,E,10.8,146.2,260825,,,A*6C
$GPRMC,173957.40,A,0545.9655,N,10208.4332,E,10.8,141.3,260825,,,A*67
$GPRMC,174001.00,A,0545.9571,N,10208.4400,E,10.8,139.7,260825,,,A*66
$GPRMC,174004.60,A,0545.9489,N,10208.4470,E,10.8,139.7,260825,,,A*64
$GPRMC,174008.20,A,0545.9407,N,10208.4540,E,10.8,136.3,260825,,,A*63
$GPRMC,174011.80,A,0545.9329,N,10208.4615,E,10.8,135.3,260825,,,A*6A
$GPRMC,174015.40,A,0545.9252,N,10208.4691,E,10.8,133.5,260825,,,A*63
$GPRMC,174019.00,A,0545.9178,N,10208.4770,E,10.8,127.9,260825,,,A*67
$GPRMC,174022.60,A,0545.9112,N,10208.4855,E,10.8,127.9,260825,,,A*6D
$GPRMC,174026.20,A,0545.9045,N,10208.4941,E,10.8,128.6,260825,,,A*6A
$GPRMC,174029.80,A,0545.8978,N,10208.5026,E,10.8,126.5,260825,,,A*6D
$GPRMC,174033.40,A,0545.8914,N,10208.5113,E,10.8,125.5,260825,,,A*64
$GPRMC,174037.00,A,0545.8851,N,10208.5201,E,10.8,118.9,260825,,,A*66
$GPRMC,174040.60,A,0545.8799,N,10208.5296,E,10.8,118.9,260825,,,A*65
$GPRMC,174044.20,A,0545.8747,N,10208.5391,E,10.8,116.1,260825,,,A*66
$GPRMC,174047.80,A,0545.8700,N,10208.5488,E,10.8,114.0,260825,,,A*60
$GPRMC,174051.40,A,0545.8656,N,10208.5588,E,10.8,111.8,260825,,,A*65
$GPRMC,174055.00,A,0545.8615,N,10208.5688,E,10.8,111.6,260825,,,A*6F
$GPRMC,174058.60,A,0545.8576,N,10208.5789,E,10.8,111.6,260825,,,A*62
$GPRMC,174102.20,A,0545.8536,N,10208.5890,E,10.8,111.6,260825,,,A*6B
$GPRMC,174105.80,A,0545.8496,N,10208.5991,E,10.8,110.9,260825,,,A*63
$GPRMC,174109.40,A,0545.8458,N,10208.6092,E,10.8,110.0,260825,,,A*61
$GPRMC,174113.00,A,0545.8421,N,10208.6194,E,10.8,110.1,260825,,,A*66
$GPRMC,174116.60,A,0545.8384,N,10208.6296,E,10.8,110.3,260825,,,A*6E
$GPRMC,174120.20,A,0545.8347,N,10208.6398,E,10.8,110.4,260825,,,A*68
$GPRMC,174123.80,A,0545.8309,N,10208.6499,E,10.8,110.4,260825,,,A*6D
$GPRMC,174127.40,A,0545.8271,N,10208.6601,E,10.8,110.3,260825,,,A*6F
$GPRMC,174131.00,A,0545.8234,N,10208.6703,E,10.8,110.3,260825,,,A*6E
$GPRMC,174134.60,A,0545.8196,N,10208.6804,E,10.8,110.3,260825,,,A*6E
$GPRMC,174138.20,A,0545.8159,N,10208.6906,E,10.8,110.3,260825,,,A*66
$GPRMC,174141.80,A,0545.8121,N,10208.7008,E,10.8,110.4,260825,,,A*6C
$GPRMC,174145.40,A,0545.8084,N,10208.7109,E,10.8,110.5,260825,,,A*6B
$GPRMC,174149.00,A,0545.8046,N,10208.7211,E,10.8,110.5,260825,,,A*67
$GPRMC,174152.60,A,0545.8008,N,10208.7313,E,10.8,110.4,260825,,,A*63
$GPRMC,174156.20,A,0545.7970,N,10208.7414,E,10.8,110.3,260825,,,A*6D
$GPRMC,174159.80,A,0545.7933,N,10208.7516,E,10.8,110.4,260825,,,A*6B
$GPRMC,174203.40,A,0545.7895,N,10208.7618,E,10.8,110.5,260825,,,A*6A
$GPRMC,174207.00,A,0545.7858,N,10208.7719,E,10.8,110.4,260825,,,A*6A
$GPRMC,174210.60,A,0545.7820,N,10208.7821,E,10.8,110.4,260825,,,A*61
$GPRMC,174214.20,A,0545.7782,N,10208.7923,E,10.8,110.4,260825,,,A*65
$GPRMC,174217.80,A,0545.7745,N,10208.8024,E,10.8,110.4,260825,,,A*66
$GPRMC,174221.40,A,0545.7707,N,10208.8126,E,10.8,110.4,260825,,,A*6A
$GPRMC,174225.00,A,0545.7670,N,10208.8228,E,10.8,110.3,260825,,,A*61
$GPRMC,174228.60,A,0545.7632,N,10208.8329,E,10.8,110.3,260825,,,A*6C
$GPRMC,174232.20,A,0545.7595,N,10208.8431,E,10.8,110.3,260825,,,A*63
$GPRMC,174235.80,A,0545.7557,N,10208.8533,E,10.8,110.4,260825,,,A*64
$GPRMC,174239.40,A,0545.7520,N,10208.8635,E,10.8,110.4,260825,,,A*61
$GPRMC,174243.00,A,0545.7482,N,10208.8736,E,10.8,110.4,260825,,,A*63
$GPRMC,174246.60,A,0545.7444,N,10208.8838,E,10.8,110.4,260825,,,A*6B
$GPRMC,174250.20,A,0545.7407,N,10208.8940,E,10.8,110.4,260825,,,A*61
$GPRMC,174253.80,A,0545.7369,N,10208.9041,E,10.8,110.4,260825,,,A*6E
$GPRMC,174257.40,A,0545.7332,N,10208.9143,E,10.8,110.4,260825,,,A*6B
$GPRMC,174301.00,A,0545.7294,N,10208.9245,E,10.8,110.4,260825,,,A*65
$GPRMC,174304.60,A,0545.7256,N,10208.9346,E,10.8,110.4,260825,,,A*6A
$GPRMC,174308.20,A,0545.7219,N,10208.9448,E,10.8,110.4,260825,,,A*60
$GPRMC,174311.80,A,0545.7181,N,10208.9550,E,10.8,110.4,260825,,,A*68
$GPRMC,174315.40,A,0545.7143,N,10208.9651,E,10.8,110.4,260825,,,A*6C
$GPRMC,174319.00,A,0545.7106,N,10208.9753,E,10.8,110.4,260825,,,A*66
$GPRMC,174322.60,A,0545.7068,N,10208.9854,E,10.8,110.4,260825,,,A*69
$GPRMC,174326.20,A,0545.7031,N,10208.9956,E,10.8,110.4,260825,,,A*66
$GPRMC,174329.80,A,0545.6993,N,10209.0058,E,10.8,110.4,260825,,,A*6C
$GPRMC,174333.40,A,0545.6955,N,10209.0159,E,10.8,110.4,260825,,,A*61
$GPRMC,174337.00,A,0545.6918,N,10209.0261,E,10.8,110.4,260825,,,A*60
$GPRMC,174340.60,A,0545.6880,N,10209.0363,E,10.8,110.4,260825,,,A*65
$GPRMC,174344.20,A,0545.6842,N,10209.0464,E,10.8,110.4,260825,,,A*6B
$GPRMC,174347.80,A,0545.6805,N,10209.0566,E,10.8,110.4,260825,,,A*62
$GPRMC,174351.40,A,0545.6767,N,10209.0668,E,10.8,110.4,260825,,,A*6F
$GPRMC,174355.00,A,0545.6730,N,10209.0769,E,10.8,110.4,260825,,,A*6D
$GPRMC,174358.60,A,0545.6692,N,10209.0871,E,10.8,110.4,260825,,,A*69
$GPRMC,174402.20,A,0545.6654,N,10209.0973,E,10.8,110.4,260825,,,A*6C
$GPRMC,174405.80,A,0545.6617,N,10209.1074,E,10.8,110.4,260825,,,A*69
$GPRMC,174409.40,A,0545.6579,N,10209.1176,E,10.8,110.4,260825,,,A*61
$GPRMC,174413.00,A,0545.6542,N,10209.1278,E,10.8,110.4,260825,,,A*6B
$GPRMC,174416.60,A,0545.6504,N,10209.1379,E,10.8,110.7,260825,,,A*69
$GPRMC,174420.20,A,0545.6466,N,10209.1481,E,10.8,112.6,260825,,,A*6E
$GPRMC,174423.80,A,0545.6425,N,10209.1581,E,10.8,112.4,260825,,,A*63
$GPRMC,174427.40,A,0545.6383,N,10209.1681,E,10.8,113.1,260825,,,A*67
$GPRMC,174431.00,A,0545.6341,N,10209.1781,E,10.8,116.1,260825,,,A*6E
$GPRMC,174434.60,A,0545.6294,N,10209.1879,E,10.8,116.1,260825,,,A*6C
$GPRMC,174438.20,A,0545.6246,N,10209.1976,E,10.8,116.2,260825,,,A*66
$GPRMC,174441.80,A,0545.6199,N,10209.2073,E,10.8,119.8,260825,,,A*69
$GPRMC,174445.40,A,0545.6145,N,10209.2167,E,10.8,122.2,260825,,,A*66
$GPRMC,174449.00,A,0545.6087,N,10209.2259,E,10.8,124.4,260825,,,A*6F
$GPRMC,174452.60,A,0545.6026,N,10209.2349,E,10.8,127.2,260825,,,A*6D
$GPRMC,174456.20,A,0545.5961,N,10209.2435,E,10.8,127.2,260825,,,A*68
$GPRMC,174459.80,A,0545.5896,N,10209.2521,E,10.8,131.0,260825,,,A*65
$GPRMC,174503.40,A,0545.5825,N,10209.2603,E,10.8,132.0,260825,,,A*6F
$GPRMC,174507.00,A,0545.5753,N,10209.2684,E,10.8,132.3,260825,,,A*6D
$GPRMC,174510.60,A,0545.5680,N,10209.2764,E,10.8,135.4,260825,,,A*6D
$GPRMC,174514.20,A,0545.5604,N,10209.2840,E,10.8,139.6,260825,,,A*66
$GPRMC,174517.80,A,0545.5521,N,10209.2910,E,10.8,140.7,260825,,,A*60
$GPRMC,174521.40,A,0545.5438,N,10209.2979,E,10.8,142.4,260825,,,A*6E
$GPRMC,174525.00,A,0545.5352,N,10209.3045,E,10.8,144.9,260825,,,A*69
$GPRMC,174528.60,A,0545.5264,N,10209.3107,E,10.8,146.3,260825,,,A*69
$GPRMC,174532.20,A,0545.5174,N,10209.3168,E,10.8,148.1,260825,,,A*61
$GPRMC,174535.80,A,0545.5083,N,10209.3225,E,10.8,149.7,260825,,,A*68
$GPRMC,174539.40,A,0545.4990,N,10209.3280,E,10.8,152.0,260825,,,A*60
$GPRMC,174543.00,A,0545.4894,N,10209.3330,E,10.8,153.4,260825,,,A*63
$GPRMC,174546.60,A,0545.4798,N,10209.3379,E,10.8,155.1,260825,,,A*6D
$GPRMC,174550.20,A,0545.4700,N,10209.3425,E,10.8,156.4,260825,,,A*67
$GPRMC,174553.80,A,0545.4601,N,10209.3468,E,10.8,160.7,260825,,,A*61
$GPRMC,174557.40,A,0545.4499,N,10209.3504,E,10.8,160.7,260825,,,A*61
$GPRMC,174601.00,A,0545.4397,N,10209.3540,E,10.8,164.8,260825,,,A*67
$GPRMC,174604.60,A,0545.4293,N,10209.3568,E,10.8,167.1,260825,,,A*61
$GPRMC,174608.20,A,0545.4188,N,10209.3592,E,10.8,167.1,260825,,,A*65
$GPRMC,174611.80,A,0545.4083,N,10209.3617,E,10.8,170.2,260825,,,A*66
$GPRMC,174615.40,A,0545.3977,N,10209.3635,E,10.8,170.4,260825,,,A*6D
$GPRMC,174619.00,A,0545.3870,N,10209.3653,E,10.8,171.2,260825,,,A*64
$GPRMC,174622.60,A,0545.3764,N,10209.3670,E,10.8,172.2,260825,,,A*62
$GPRMC,174626.20,A,0545.3657,N,10209.3685,E,10.8,172.9,260825,,,A*62
$GPRMC,174629.80,A,0545.3550,N,10209.3698,E,10.8,172.5,260825,,,A*63
$GPRMC,174633.40,A,0545.3443,N,10209.3712,E,10.8,172.4,260825,,,A*65
$GPRMC,174637.00,A,0545.3336,N,10209.3726,E,10.8,172.4,260825,,,A*67
$GPRMC,174640.60,A,0545.3229,N,10209.3741,E,10.8,172.4,260825,,,A*6F
$GPRMC,174644.20,A,0545.3122,N,10209.3755,E,10.8,172.4,260825,,,A*62
$GPRMC,174647.80,A,0545.3015,N,10209.3769,E,10.8,172.4,260825,,,A*61
$GPRMC,174651.40,A,0545.2908,N,10209.3784,E,10.8,172.4,260825,,,A*6D
$GPRMC,174655.00,A,0545.2801,N,10209.3798,E,10.8,172.4,260825,,,A*68
$GPRMC,174658.60,A,0545.2694,N,10209.3812,E,10.8,172.4,260825,,,A*6C
$GPRMC,174702.20,A,0545.2587,N,10209.3826,E,10.8,172.4,260825,,,A*60
$GPRMC,174705.80,A,0545.2480,N,10209.3841,E,10.8,172.4,260825,,,A*6A
$GPRMC,174709.40,A,0545.2373,N,10209.3855,E,10.8,172.4,260825,,,A*64
$GPRMC,174713.00,A,0545.2266,N,10209.3869,E,10.8,172.3,260825,,,A*66
$GPRMC,174716.60,A,0545.2159,N,10209.3884,E,10.8,172.1,260825,,,A*6B
$GPRMC,174720.20,A,0545.2052,N,10209.3899,E,10.8,172.1,260825,,,A*6C
$GPRMC,174723.80,A,0545.1945,N,10209.3914,E,10.8,172.1,260825,,,A*6D
$GPRMC,174727.40,A,0545.1838,N,10209.3929,E,10.8,172.1,260825,,,A*60
$GPRMC,174731.00,A,0545.1731,N,10209.3944,E,10.8,171.8,260825,,,A*64
$GPRMC,174734.60,A,0545.1625,N,10209.3959,E,10.8,169.0,260825,,,A*6E
$GPRMC,174738.20,A,0545.1519,N,10209.3980,E,10.8,167.9,260825,,,A*69
$GPRMC,174741.80,A,0545.1413,N,10209.4003,E,10.8,167.5,260825,,,A*6F
$GPRMC,174745.40,A,0545.1308,N,10209.4026,E,10.8,167.4,260825,,,A*6C
$GPRMC,174749.00,A,0545.1202,N,10209.4050,E,10.8,167.2,260825,,,A*68
$GPRMC,174752.60,A,0545.1097,N,10209.4074,E,10.8,164.3,260825,,,A*6E
$GPRMC,174756.20,A,0545.0993,N,10209.4103,E,10.8,163.4,260825,,,A*63
$GPRMC,174759.80,A,0545.0890,N,10209.4134,E,10.8,163.8,260825,,,A*6C
$GPRMC,174803.40,A,0545.0786,N,10209.4164,E,10.8,164.2,260825,,,A*60
$GPRMC,174807.00,A,0545.0682,N,10209.4194,E,10.8,164.2,260825,,,A*6A
$GPRMC,174810.60,A,0545.0579,N,10209.4223,E,10.8,164.2,260825,,,A*62
$GPRMC,174814.20,A,0545.0475,N,10209.4253,E,10.8,164.2,260825,,,A*68
$GPRMC,174817.80,A,0545.0371,N,10209.4282,E,10.8,164.2,260825,,,A*6E
$GPRMC,174821.40,A,0545.0267,N,10209.4312,E,10.8,164.2,260825,,,A*69
$GPRMC,174825.00,A,0545.0163,N,10209.4342,E,10.8,164.2,260825,,,A*6B
$GPRMC,174828.60,A,0545.0059,N,10209.4371,E,10.8,164.2,260825,,,A*68
$GPRMC,174832.20,A,0544.9956,N,10209.4401,E,10.8,164.2,260825,,,A*69
$GPRMC,174835.80,A,0544.9852,N,10209.4430,E,10.8,164.2,260825,,,A*63
$GPRMC,174839.40,A,0544.9748,N,10209.4460,E,10.8,164.2,260825,,,A*62
$GPRMC,174843.00,A,0544.9644,N,10209.4489,E,10.8,164.2,260825,,,A*61
$GPRMC,174846.60,A,0544.9540,N,10209.4519,E,10.8,164.2,260825,,,A*6D
$GPRMC,174850.20,A,0544.9436,N,10209.4548,E,10.8,164.2,260825,,,A*6A
$GPRMC,174853.80,A,0544.9333,N,10209.4578,E,10.8,164.2,260825,,,A*62
$GPRMC,174857.40,A,0544.9229,N,10209.4607,E,10.8,164.2,260825,,,A*6B
$GPRMC,174901.00,A,0544.9125,N,10209.4637,E,10.8,164.3,260825,,,A*60
$GPRMC,174904.60,A,0544.9021,N,10209.4666,E,10.8,164.3,260825,,,A*62
$GPRMC,174908.20,A,0544.8917,N,10209.4696,E,10.8,164.3,260825,,,A*68
$GPRMC,174911.80,A,0544.8813,N,10209.4725,E,10.8,164.3,260825,,,A*66
$GPRMC,174915.40,A,0544.8709,N,10209.4755,E,10.8,164.3,260825,,,A*6D
$GPRMC,174919.00,A,0544.8605,N,10209.4784,E,10.8,164.3,260825,,,A*64
$GPRMC,174922.60,A,0544.8502,N,10209.4814,E,10.8,164.3,260825,,,A*68
$GPRMC,174926.20,A,0544.8398,N,10209.4843,E,10.8,164.3,260825,,,A*6F
$GPRMC,174929.80,A,0544.8294,N,10209.4872,E,10.8,164.3,260825,,,A*65
$GPRMC,174933.40,A,0544.8190,N,10209.4902,E,10.8,164.3,260825,,,A*63
$GPRMC,174937.00,A,0544.8086,N,10209.4931,E,10.8,164.3,260825,,,A*65
$GPRMC,174940.60,A,0544.7982,N,10209.4961,E,10.8,164.3,260825,,,A*64
$GPRMC,174944.20,A,0544.7878,N,10209.4990,E,10.8,164.3,260825,,,A*6E
$GPRMC,174947.80,A,0544.7775,N,10209.5020,E,10.8,164.3,260825,,,A*66
$GPRMC,174951.40,A,0544.7671,N,10209.5049,E,10.8,164.3,260825,,,A*67
$GPRMC,174955.00,A,0544.7567,N,10209.5078,E,10.8,164.2,260825,,,A*60
$GPRMC,174958.60,A,0544.7463,N,10209.5108,E,10.8,164.2,260825,,,A*68
$GPRMC,175002.20,A,0544.7359,N,10209.5138,E,10.8,164.2,260825,,,A*66
$GPRMC,175005.80,A,0544.7255,N,10209.5167,E,10.8,164.2,260825,,,A*6C
$GPRMC,175009.40,A,0544.7151,N,10209.5197,E,10.8,164.2,260825,,,A*64
$GPRMC,175013.00,A,0544.7048,N,10209.5226,E,10.8,164.2,260825,,,A*6B
$GPRMC,175016.60,A,0544.6944,N,10209.5256,E,10.8,164.2,260825,,,A*6B
$GPRMC,175020.20,A,0544.6840,N,10209.5285,E,10.8,164.2,260825,,,A*61
$GPRMC,175023.80,A,0544.6736,N,10209.5315,E,10.8,164.2,260825,,,A*6E
$GPRMC,175027.40,A,0544.6632,N,10209.5345,E,10.8,164.2,260825,,,A*66
$GPRMC,175031.00,A,0544.6528,N,10209.5374,E,10.8,164.2,260825,,,A*6F
$GPRMC,175034.60,A,0544.6425,N,10209.5404,E,10.8,164.2,260825,,,A*60
$GPRMC,175038.20,A,0544.6321,N,10209.5433,E,10.8,164.2,260825,,,A*6F
$GPRMC,175041.80,A,0544.6217,N,10209.5463,E,10.8,164.2,260825,,,A*6A
$GPRMC,175045.40,A,0544.6113,N,10209.5493,E,10.8,164.2,260825,,,A*6A
$GPRMC,175049.00,A,0544.6009,N,10209.5522,E,10.8,164.2,260825,,,A*63
$GPRMC,175052.60,A,0544.5906,N,10209.5552,E,10.8,164.2,260825,,,A*6D
$GPRMC,175056.20,A,0544.5802,N,10209.5581,E,10.8,164.2,260825,,,A*66
$GPRMC,175059.80,A,0544.5698,N,10209.5611,E,10.8,164.2,260825,,,A*64
$GPRMC,175103.40,A,0544.5594,N,10209.5640,E,10.8,164.2,260825,,,A*6D
$GPRMC,175107.00,A,0544.5490,N,10209.5670,E,10.8,164.0,260825,,,A*69
$GPRMC,175110.60,A,0544.5386,N,10209.5700,E,10.8,163.1,260825,,,A*69
$GPRMC,175114.20,A,0544.5283,N,10209.5731,E,10.8,163.1,260825,,,A*6F
$GPRMC,175117.80,A,0544.5180,N,10209.5763,E,10.8,163.1,260825,,,A*61
$GPRMC,175121.40,A,0544.5077,N,10209.5794,E,10.8,163.1,260825,,,A*69
$GPRMC,175125.00,A,0544.4973,N,10209.5826,E,10.8,163.1,260825,,,A*63
$GPRMC,175128.60,A,0544.4870,N,10209.5857,E,10.8,164.1,260825,,,A*6B
$GPRMC,175132.20,A,0544.4766,N,10209.5887,E,10.8,164.7,260825,,,A*67
$GPRMC,175135.80,A,0544.4662,N,10209.5915,E,10.8,164.7,260825,,,A*65
$GPRMC,175139.40,A,0544.4558,N,10209.5944,E,10.8,164.7,260825,,,A*6B
$GPRMC,175143.00,A,0544.4454,N,10209.5973,E,10.8,164.7,260825,,,A*6B
$GPRMC,175146.60,A,0544.4350,N,10209.6001,E,10.8,164.7,260825,,,A*64
$GPRMC,175150.20,A,0544.4246,N,10209.6030,E,10.8,164.7,260825,,,A*63
$GPRMC,175153.80,A,0544.4142,N,10209.6058,E,10.8,164.7,260825,,,A*63
$GPRMC,175157.40,A,0544.4038,N,10209.6087,E,10.8,164.7,260825,,,A*65
$GPRMC,175201.00,A,0544.3933,N,10209.6115,E,10.8,164.7,260825,,,A*6E
$GPRMC,175204.60,A,0544.3829,N,10209.6144,E,10.8,164.7,260825,,,A*63
$GPRMC,175208.20,A,0544.3725,N,10209.6173,E,10.8,164.7,260825,,,A*6C
$GPRMC,175211.80,A,0544.3621,N,10209.6201,E,10.8,164.7,260825,,,A*6D
$GPRMC,175215.40,A,0544.3517,N,10209.6230,E,10.8,164.6,260825,,,A*60
$GPRMC,175219.00,A,0544.3413,N,10209.6259,E,10.8,164.2,260825,,,A*66
$GPRMC,175222.60,A,0544.3309,N,10209.6288,E,10.8,164.2,260825,,,A*68
$GPRMC,175226.20,A,0544.3205,N,10209.6318,E,10.8,164.2,260825,,,A*6D
$GPRMC,175229.80,A,0544.3101,N,10209.6347,E,10.8,164.2,260825,,,A*65
$GPRMC,175233.40,A,0544.2998,N,10209.6376,E,10.8,164.2,260825,,,A*69
$GPRMC,175237.00,A,0544.2894,N,10209.6406,E,10.8,164.2,260825,,,A*64
$GPRMC,175240.60,A,0544.2790,N,10209.6435,E,10.8,164.2,260825,,,A*69
$GPRMC,175244.20,A,0544.2686,N,10209.6465,E,10.8,164.2,260825,,,A*6A
$GPRMC,175247.80,A,0544.2582,N,10209.6494,E,10.8,164.2,260825,,,A*6A
$GPRMC,175251.40,A,0544.2478,N,10209.6524,E,10.8,164.2,260825,,,A*6F
$GPRMC,175255.00,A,0544.2374,N,10209.6553,E,10.8,164.2,260825,,,A*64
$GPRMC,175258.60,A,0544.2271,N,10209.6583,E,10.8,164.2,260825,,,A*66
$GPRMC,175302.20,A,0544.2167,N,10209.6612,E,10.8,164.2,260825,,,A*63
$GPRMC,175305.80,A,0544.2063,N,10209.6642,E,10.8,164.2,260825,,,A*6E
$GPRMC,175309.40,A,0544.1959,N,10209.6671,E,10.8,164.2,260825,,,A*6D
$GPRMC,175313.00,A,0544.1855,N,10209.6701,E,10.8,164.2,260825,,,A*69
$GPRMC,175316.60,A,0544.1751,N,10209.6730,E,10.8,164.2,260825,,,A*63
$GPRMC,175320.20,A,0544.1647,N,10209.6759,E,10.8,164.2,260825,,,A*6B
$GPRMC,175323.80,A,0544.1543,N,10209.6789,E,10.8,164.2,260825,,,A*68
$GPRMC,175327.40,A,0544.1440,N,10209.6818,E,10.8,164.2,260825,,,A*65
$GPRMC,175331.00,A,0544.1336,N,10209.6848,E,10.8,164.2,260825,,,A*65
$GPRMC,175334.60,A,0544.1232,N,10209.6877,E,10.8,164.2,260825,,,A*6F
$GPRMC,175338.20,A,0544.1128,N,10209.6907,E,10.8,164.2,260825,,,A*69
$GPRMC,175341.80,A,0544.1024,N,10209.6936,E,10.8,164.2,260825,,,A*62
$GPRMC,175345.40,A,0544.0920,N,10209.6966,E,10.8,164.2,260825,,,A*63
$GPRMC,175349.00,A,0544.0816,N,10209.6995,E,10.8,164.2,260825,,,A*63
$GPRMC,175352.60,A,0544.0713,N,10209.7025,E,10.8,167.2,260825,,,A*65
$GPRMC,175356.20,A,0544.0607,N,10209.7049,E,10.8,167.7,260825,,,A*6E
$GPRMC,175359.80,A,0544.0502,N,10209.7072,E,10.8,167.9,260825,,,A*6B
$GPRMC,175403.40,A,0544.0396,N,10209.7095,E,10.8,169.6,260825,,,A*6C
$GPRMC,175407.00,A,0544.0290,N,10209.7114,E,10.8,172.3,260825,,,A*6C
$GPRMC,175410.60,A,0544.0183,N,10209.7129,E,10.8,175.7,260825,,,A*60
$GPRMC,175414.20,A,0544.0076,N,10209.7137,E,10.8,177.9,260825,,,A*68
$GPRMC,175417.80,A,0543.9968,N,10209.7141,E,10.8,180.0,260825,,,A*69
$GPRMC,175421.40,A,0543.9860,N,10209.7141,E,10.8,180.9,260825,,,A*60
$GPRMC,175425.00,A,0543.9752,N,10209.7139,E,10.8,181.9,260825,,,A*60
$GPRMC,175428.60,A,0543.9644,N,10209.7136,E,10.8,185.0,260825,,,A*6F
$GPRMC,175432.20,A,0543.9537,N,10209.7126,E,10.8,188.8,260825,,,A*63
$GPRMC,175435.80,A,0543.9430,N,10209.7110,E,10.8,189.6,260825,,,A*62
$GPRMC,175439.40,A,0543.9324,N,10209.7092,E,10.8,191.6,260825,,,A*62
$GPRMC,175443.00,A,0543.9218,N,10209.7070,E,10.8,191.6,260825,,,A*69
$GPRMC,175446.60,A,0543.9112,N,10209.7048,E,10.8,196.2,260825,,,A*6B
$GPRMC,175450.20,A,0543.9009,N,10209.7018,E,10.8,197.7,260825,,,A*62
$GPRMC,175453.80,A,0543.8906,N,10209.6985,E,10.8,198.5,260825,,,A*6D
$GPRMC,175457.40,A,0543.8804,N,10209.6950,E,10.8,198.9,260825,,,A*62
$GPRMC,175501.00,A,0543.8702,N,10209.6915,E,10.8,200.0,260825,,,A*67
$GPRMC,175504.60,A,0543.8600,N,10209.6878,E,10.8,200.0,260825,,,A*6D
$GPRMC,175508.20,A,0543.8499,N,10209.6841,E,10.8,200.0,260825,,,A*6D
$GPRMC,175511.80,A,0543.8397,N,10209.6804,E,10.8,200.0,260825,,,A*67
$GPRMC,175515.40,A,0543.8296,N,10209.6767,E,10.8,200.0,260825,,,A*65
$GPRMC,175519.00,A,0543.8194,N,10209.6730,E,10.8,201.3,260825,,,A*6C
$GPRMC,175522.60,A,0543.8094,N,10209.6691,E,10.8,201.5,260825,,,A*6F
$GPRMC,175526.20,A,0543.7993,N,10209.6651,E,10.8,201.5,260825,,,A*62
$GPRMC,175529.80,A,0543.7893,N,10209.6611,E,10.8,201.5,260825,,,A*62
$GPRMC,175533.40,A,0543.7793,N,10209.6572,E,10.8,201.5,260825,,,A*6C
$GPRMC,175537.00,A,0543.7692,N,10209.6532,E,10.8,201.0,260825,,,A*6D
$GPRMC,175540.60,A,0543.7591,N,10209.6493,E,10.8,200.7,260825,,,A*67
$GPRMC,175544.20,A,0543.7490,N,10209.6455,E,10.8,200.7,260825,,,A*6D
$GPRMC,175547.80,A,0543.7390,N,10209.6416,E,10.8,200.7,260825,,,A*64
$GPRMC,175551.40,A,0543.7289,N,10209.6378,E,10.8,200.7,260825,,,A*69
$GPRMC,175555.00,A,0543.7188,N,10209.6340,E,10.8,200.7,260825,,,A*60
$GPRMC,175558.60,A,0543.7087,N,10209.6301,E,10.8,200.7,260825,,,A*60
$GPRMC,175602.20,A,0543.6986,N,10209.6263,E,10.8,200.8,260825,,,A*6B
$GPRMC,175605.80,A,0543.6885,N,10209.6224,E,10.8,201.3,260825,,,A*6D
$GPRMC,175609.40,A,0543.6784,N,10209.6185,E,10.8,201.3,260825,,,A*6B
$GPRMC,175613.00,A,0543.6684,N,10209.6145,E,10.8,201.3,260825,,,A*69
$GPRMC,175616.60,A,0543.6583,N,10209.6106,E,10.8,201.3,260825,,,A*69
$GPRMC,175620.20,A,0543.6483,N,10209.6066,E,10.8,201.3,260825,,,A*6E
$GPRMC,175623.80,A,0543.6382,N,10209.6027,E,10.8,201.3,260825,,,A*64
$GPRMC,175627.40,A,0543.6282,N,10209.5988,E,10.8,201.3,260825,,,A*62
$GPRMC,175631.00,A,0543.6181,N,10209.5948,E,10.8,201.3,260825,,,A*6D
$GPRMC,175634.60,A,0543.6081,N,10209.5909,E,10.8,201.2,260825,,,A*6B
$GPRMC,175638.20,A,0543.5980,N,10209.5869,E,10.8,201.1,260825,,,A*6C
$GPRMC,175641.80,A,0543.5879,N,10209.5830,E,10.8,201.1,260825,,,A*63
$GPRMC,175645.40,A,0543.5779,N,10209.5791,E,10.8,201.1,260825,,,A*60
$GPRMC,175649.00,A,0543.5678,N,10209.5752,E,10.8,201.1,260825,,,A*67
$GPRMC,175652.60,A,0543.5577,N,10209.5713,E,10.8,201.1,260825,,,A*62
$GPRMC,175656.20,A,0543.5477,N,10209.5674,E,10.8,201.1,260825,,,A*63
$GPRMC,175659.80,A,0543.5376,N,10209.5635,E,10.8,201.1,260825,,,A*65
$GPRMC,175703.40,A,0543.5275,N,10209.5596,E,10.8,201.1,260825,,,A*6F
$GPRMC,175707.00,A,0543.5175,N,10209.5557,E,10.8,201.1,260825,,,A*61
$GPRMC,175710.60,A,0543.5074,N,10209.5518,E,10.8,201.1,260825,,,A*6A
$GPRMC,175714.20,A,0543.4973,N,10209.5479,E,10.8,201.1,260825,,,A*63
$GPRMC,175717.80,A,0543.4873,N,10209.5440,E,10.8,201.1,260825,,,A*61
$GPRMC,175721.40,A,0543.4772,N,10209.5401,E,10.8,201.1,260825,,,A*63
$GPRMC,175725.00,A,0543.4671,N,10209.5362,E,10.8,201.1,260825,,,A*63
$GPRMC,175728.60,A,0543.4571,N,10209.5323,E,10.8,201.1,260825,,,A*6E
$GPRMC,175732.20,A,0543.4470,N,10209.5284,E,10.8,201.1,260825,,,A*6D
$GPRMC,175735.80,A,0543.4369,N,10209.5244,E,10.8,201.1,260825,,,A*63
$GPRMC,175739.40,A,0543.4269,N,10209.5205,E,10.8,201.1,260825,,,A*67
$GPRMC,175743.00,A,0543.4168,N,10209.5166,E,10.8,201.1,260825,,,A*6A
$GPRMC,175746.60,A,0543.4067,N,10209.5127,E,10.8,201.1,260825,,,A*62
$GPRMC,175750.20,A,0543.3967,N,10209.5088,E,10.8,201.1,260825,,,A*6B
$GPRMC,175753.80,A,0543.3866,N,10209.5049,E,10.8,201.1,260825,,,A*6F
$GPRMC,175757.40,A,0543.3765,N,10209.5010,E,10.8,201.1,260825,,,A*67
$GPRMC,175801.00,A,0543.3665,N,10209.4971,E,10.8,201.1,260825,,,A*61
$GPRMC,175804.60,A,0543.3564,N,10209.4932,E,10.8,201.1,260825,,,A*67
$GPRMC,175808.20,A,0543.3463,N,10209.4893,E,10.8,201.1,260825,,,A*63
$GPRMC,175811.80,A,0543.3362,N,10209.4854,E,10.8,201.1,260825,,,A*6C
$GPRMC,175815.40,A,0543.3262,N,10209.4815,E,10.8,201.1,260825,,,A*60
$GPRMC,175819.00,A,0543.3161,N,10209.4776,E,10.8,201.1,260825,,,A*62
$GPRMC,175822.60,A,0543.3060,N,10209.4737,E,10.8,201.1,260825,,,A*69
$GPRMC,175826.20,A,0543.2960,N,10209.4698,E,10.8,201.1,260825,,,A*65
$GPRMC,175829.80,A,0543.2859,N,10209.4659,E,10.8,201.1,260825,,,A*66
$GPRMC,175833.40,A,0543.2758,N,10209.4619,E,10.8,201.1,260825,,,A*6B
$GPRMC,175837.00,A,0543.2658,N,10209.4580,E,10.8,201.1,260825,,,A*69
$GPRMC,175840.60,A,0543.2557,N,10209.4541,E,10.8,201.1,260825,,,A*6E
$GPRMC,175844.20,A,0543.2456,N,10209.4502,E,10.8,201.1,260825,,,A*69
$GPRMC,175847.80,A,0543.2356,N,10209.4463,E,10.8,200.1,260825,,,A*60
$GPRMC,175851.40,A,0543.2254,N,10209.4426,E,10.8,199.9,260825,,,A*62
$GPRMC,175855.00,A,0543.2153,N,10209.4389,E,10.8,200.4,260825,,,A*6A
$GPRMC,175858.60,A,0543.2052,N,10209.4351,E,10.8,201.2,260825,,,A*63
$GPRMC,175902.20,A,0543.1951,N,10209.4312,E,10.8,201.2,260825,,,A*67
$GPRMC,175905.80,A,0543.1850,N,10209.4273,E,10.8,201.2,260825,,,A*6C
$GPRMC,175909.40,A,0543.1750,N,10209.4234,E,10.8,201.2,260825,,,A*60
$GPRMC,175913.00,A,0543.1649,N,10209.4194,E,10.8,201.2,260825,,,A*6F
$GPRMC,175916.60,A,0543.1549,N,10209.4155,E,10.8,201.3,260825,,,A*63
$GPRMC,175920.20,A,0543.1448,N,10209.4116,E,10.8,201.3,260825,,,A*65
$GPRMC,175923.80,A,0543.1348,N,10209.4076,E,10.8,201.3,260825,,,A*6C
$GPRMC,175927.40,A,0543.1247,N,10209.4037,E,10.8,201.3,260825,,,A*6F
$GPRMC,175931.00,A,0543.1146,N,10209.3998,E,10.8,201.3,260825,,,A*65
$GPRMC,175934.60,A,0543.1046,N,10209.3958,E,10.8,201.3,260825,,,A*6B
$GPRMC,175938.20,A,0543.0945,N,10209.3919,E,10.8,201.3,260825,,,A*6D
$GPRMC,175941.80,A,0543.0845,N,10209.3879,E,10.8,201.3,260825,,,A*6F
$GPRMC,175945.40,A,0543.0744,N,10209.3840,E,10.8,201.3,260825,,,A*63
$GPRMC,175949.00,A,0543.0644,N,10209.3801,E,10.8,201.0,260825,,,A*6C
$GPRMC,175952.60,A,0543.0543,N,10209.3762,E,10.8,200.6,260825,,,A*69
$GPRMC,175956.20,A,0543.0442,N,10209.3724,E,10.8,200.6,260825,,,A*6B
$GPRMC,175959.80,A,0543.0341,N,10209.3685,E,10.8,200.6,260825,,,A*60
$GPRMC,180003.40,A,0543.0240,N,10209.3647,E,10.8,200.6,260825,,,A*6E
$GPRMC,180007.00,A,0543.0139,N,10209.3609,E,10.8,200.6,260825,,,A*69
$GPRMC,180010.60,A,0543.0038,N,10209.3571,E,10.8,200.6,260825,,,A*65
$GPRMC,180014.20,A,0542.9937,N,10209.3533,E,10.8,200.6,260825,,,A*6D
$GPRMC,180017.80,A,0542.9836,N,10209.3495,E,10.8,200.6,260825,,,A*69
$GPRMC,180021.40,A,0542.9735,N,10209.3457,E,10.8,200.6,260825,,,A*62
$GPRMC,180025.00,A,0542.9634,N,10209.3419,E,10.8,200.6,260825,,,A*68
$GPRMC,180028.60,A,0542.9533,N,10209.3381,E,10.8,200.8,260825,,,A*6F
$GPRMC,180032.20,A,0542.9432,N,10209.3342,E,10.8,201.0,260825,,,A*66
$GPRMC,180035.80,A,0542.9331,N,10209.3303,E,10.8,201.0,260825,,,A*6A
$GPRMC,180039.40,A,0542.9230,N,10209.3264,E,10.8,201.0,260825,,,A*6A
$GPRMC,180043.00,A,0542.9130,N,10209.3225,E,10.8,201.0,260825,,,A*65
$GPRMC,180046.60,A,0542.9029,N,10209.3187,E,10.8,201.0,260825,,,A*64
$GPRMC,180050.20,A,0542.8928,N,10209.3148,E,10.8,201.0,260825,,,A*6D
$GPRMC,180053.80,A,0542.8827,N,10209.3109,E,10.8,201.0,260825,,,A*6F
$GPRMC,180057.40,A,0542.8727,N,10209.3070,E,10.8,201.0,260825,,,A*67
$GPRMC,180101.00,A,0542.8626,N,10209.3031,E,10.8,201.0,260825,,,A*64
$GPRMC,180104.60,A,0542.8525,N,10209.2992,E,10.8,201.0,260825,,,A*66
$GPRMC,180108.20,A,0542.8424,N,10209.2953,E,10.8,201.0,260825,,,A*63
$GPRMC,180111.80,A,0542.8324,N,10209.2914,E,10.8,201.0,260825,,,A*65
$GPRMC,180115.40,A,0542.8223,N,10209.2875,E,10.8,201.0,260825,,,A*6D
$GPRMC,180119.00,A,0542.8122,N,10209.2837,E,10.8,201.0,260825,,,A*61
$GPRMC,180122.60,A,0542.8021,N,10209.2798,E,10.8,201.0,260825,,,A*67
$GPRMC,180126.20,A,0542.7921,N,10209.2759,E,10.8,201.0,260825,,,A*6C
$GPRMC,180129.80,A,0542.7820,N,10209.2720,E,10.8,201.0,260825,,,A*67
$GPRMC,180133.40,A,0542.7719,N,10209.2681,E,10.8,201.0,260825,,,A*6F
$GPRMC,180137.00,A,0542.7618,N,10209.2642,E,10.8,201.0,260825,,,A*60
$GPRMC,180140.60,A,0542.7518,N,10209.2603,E,10.8,201.0,260825,,,A*60
$GPRMC,180144.20,A,0542.7417,N,10209.2564,E,10.8,201.0,260825,,,A*6C
$GPRMC,180147.80,A,0542.7316,N,10209.2525,E,10.8,201.0,260825,,,A*66
$GPRMC,180151.40,A,0542.7215,N,10209.2487,E,10.8,201.0,260825,,,A*66
$GPRMC,180155.00,A,0542.7115,N,10209.2448,E,10.8,201.0,260825,,,A*66
$GPRMC,180158.60,A,0542.7014,N,10209.2409,E,10.8,201.0,260825,,,A*68
$GPRMC,180202.20,A,0542.6913,N,10209.2370,E,10.8,201.1,260825,,,A*67
$GPRMC,180205.80,A,0542.6813,N,10209.2331,E,10.8,201.2,260825,,,A*6D
$GPRMC,180209.40,A,0542.6712,N,10209.2292,E,10.8,201.2,260825,,,A*6B
$GPRMC,180213.00,A,0542.6611,N,10209.2252,E,10.8,201.2,260825,,,A*6A
$GPRMC,180216.60,A,0542.6511,N,10209.2213,E,10.8,201.2,260825,,,A*6F
$GPRMC,180220.20,A,0542.6410,N,10209.2174,E,10.8,201.2,260825,,,A*6C
$GPRMC,180223.80,A,0542.6309,N,10209.2135,E,10.8,201.2,260825,,,A*6F
$GPRMC,180227.40,A,0542.6209,N,10209.2096,E,10.8,201.2,260825,,,A*6E
$GPRMC,180231.00,A,0542.6108,N,10209.2056,E,10.8,201.2,260825,,,A*63
$GPRMC,180234.60,A,0542.6007,N,10209.2017,E,10.8,201.2,260825,,,A*6B
$GPRMC,180238.20,A,0542.5907,N,10209.1978,E,10.8,201.2,260825,,,A*6A
$GPRMC,180241.80,A,0542.5806,N,10209.1939,E,10.8,201.2,260825,,,A*6B
$GPRMC,180245.40,A,0542.5706,N,10209.1900,E,10.8,201.2,260825,,,A*66
$GPRMC,180249.00,A,0542.5605,N,10209.1861,E,10.8,201.2,260825,,,A*6A
$GPRMC,180252.60,A,0542.5504,N,10209.1821,E,10.8,201.2,260825,,,A*60
$GPRMC,180256.20,A,0542.5404,N,10209.1782,E,10.8,201.2,260825,,,A*67
$GPRMC,180259.80,A,0542.5303,N,10209.1743,E,10.8,201.2,260825,,,A*6F
$GPRMC,180303.40,A,0542.5202,N,10209.1704,E,10.8,201.2,260825,,,A*6E
$GPRMC,180307.00,A,0542.5102,N,10209.1665,E,10.8,201.2,260825,,,A*6B
$GPRMC,180310.60,A,0542.5001,N,10209.1626,E,10.8,200.6,260825,,,A*6B
$GPRMC,180314.20,A,0542.4900,N,10209.1587,E,10.8,199.5,260825,,,A*6A
$GPRMC,180317.80,A,0542.4798,N,10209.1551,E,10.8,199.5,260825,,,A*67
$GPRMC,180321.40,A,0542.4697,N,10209.1515,E,10.8,199.5,260825,,,A*60
$GPRMC,180325.00,A,0542.4595,N,10209.1478,E,10.8,199.5,260825,,,A*6B
$GPRMC,180328.60,A,0542.4493,N,10209.1442,E,10.8,199.5,260825,,,A*6E
$GPRMC,180332.20,A,0542.4392,N,10209.1406,E,10.8,199.5,260825,,,A*67
$GPRMC,180335.80,A,0542.4290,N,10209.1370,E,10.8,199.5,260825,,,A*6F
$GPRMC,180339.40,A,0542.4188,N,10209.1333,E,10.8,198.5,260825,,,A*63
$GPRMC,180343.00,A,0542.4086,N,10209.1299,E,10.8,197.3,260825,,,A*6D
$GPRMC,180346.60,A,0542.3983,N,10209.1267,E,10.8,195.8,260825,,,A*6D
$GPRMC,180350.20,A,0542.3879,N,10209.1237,E,10.8,193.8,260825,,,A*69
$GPRMC,180353.80,A,0542.3774,N,10209.1211,E,10.8,191.7,260825,,,A*6B
$GPRMC,180357.40,A,0542.3669,N,10209.1189,E,10.8,188.9,260825,,,A*6A
$GPRMC,180401.00,A,0542.3562,N,10209.1173,E,10.8,186.9,260825,,,A*69
$GPRMC,180404.60,A,0542.3455,N,10209.1160,E,10.8,183.4,260825,,,A*65
$GPRMC,180408.20,A,0542.3347,N,10209.1153,E,10.8,181.9,260825,,,A*66
$GPRMC,180411.80,A,0542.3239,N,10209.1150,E,10.8,180.8,260825,,,A*6F
$GPRMC,180415.40,A,0542.3132,N,10209.1148,E,10.8,180.5,260825,,,A*6B
$GPRMC,180419.00,A,0542.3024,N,10209.1147,E,10.8,180.5,260825,,,A*6A
$GPRMC,180422.60,A,0542.2916,N,10209.1146,E,10.8,180.5,260825,,,A*6C
$GPRMC,180426.20,A,0542.2808,N,10209.1145,E,10.8,179.7,260825,,,A*65
$GPRMC,180429.80,A,0542.2700,N,10209.1146,E,10.8,179.2,260825,,,A*61
$GPRMC,180433.40,A,0542.2592,N,10209.1147,E,10.8,179.2,260825,,,A*6E
$GPRMC,180437.00,A,0542.2484,N,10209.1149,E,10.8,179.2,260825,,,A*66
$GPRMC,180440.60,A,0542.2376,N,10209.1151,E,10.8,179.2,260825,,,A*63
$GPRMC,180444.20,A,0542.2268,N,10209.1152,E,10.8,179.2,260825,,,A*6E
$GPRMC,180447.80,A,0542.2160,N,10209.1154,E,10.8,179.2,260825,,,A*6A
$GPRMC,180451.40,A,0542.2052,N,10209.1155,E,10.8,179.2,260825,,,A*60
$GPRMC,180455.00,A,0542.1944,N,10209.1157,E,10.8,179.2,260825,,,A*6F
$GPRMC,180458.60,A,0542.1837,N,10209.1158,E,10.8,179.2,260825,,,A*6E
$GPRMC,180502.20,A,0542.1729,N,10209.1160,E,10.8,179.2,260825,,,A*6F
$GPRMC,180505.80,A,0542.1621,N,10209.1162,E,10.8,179.8,260825,,,A*63
$GPRMC,180509.40,A,0542.1513,N,10209.1162,E,10.8,180.0,260825,,,A*6F
$GPRMC,180513.00,A,0542.1405,N,10209.1162,E,10.8,180.0,260825,,,A*66
$GPRMC,180516.60,A,0542.1297,N,10209.1162,E,10.8,180.0,260825,,,A*68
$GPRMC,180520.20,A,0542.1189,N,10209.1162,E,10.8,180.0,260825,,,A*65
$GPRMC,180523.80,A,0542.1081,N,10209.1162,E,10.8,180.0,260825,,,A*65
$GPRMC,180527.40,A,0542.0973,N,10209.1162,E,10.8,180.0,260825,,,A*68
$GPRMC,180531.00,A,0542.0865,N,10209.1162,E,10.8,180.0,260825,,,A*6D
$GPRMC,180534.60,A,0542.0757,N,10209.1162,E,10.8,180.0,260825,,,A*60
$GPRMC,180538.20,A,0542.0650,N,10209.1162,E,10.8,180.0,260825,,,A*6E
$GPRMC,180541.80,A,0542.0542,N,10209.1161,E,10.8,180.0,260825,,,A*69
$GPRMC,180545.40,A,0542.0434,N,10209.1161,E,10.8,180.0,260825,,,A*61
$GPRMC,180549.00,A,0542.0326,N,10209.1161,E,10.8,180.0,260825,,,A*6D
$GPRMC,180552.60,A,0542.0218,N,10209.1161,E,10.8,180.0,260825,,,A*6D
$GPRMC,180556.20,A,0542.0110,N,10209.1161,E,10.8,180.0,260825,,,A*66
$GPRMC,180559.80,A,0542.0002,N,10209.1161,E,10.8,180.0,260825,,,A*61
$GPRMC,180603.40,A,0541.9894,N,10209.1161,E,10.8,180.0,260825,,,A*6C
$GPRMC,180607.00,A,0541.9786,N,10209.1161,E,10.8,180.0,260825,,,A*60
$GPRMC,180610.60,A,0541.9678,N,10209.1161,E,10.8,179.7,260825,,,A*61
$GPRMC,180614.20,A,0541.9570,N,10209.1162,E,10.8,179.6,260825,,,A*68
$GPRMC,180617.80,A,0541.9462,N,10209.1162,E,10.8,179.6,260825,,,A*63
$GPRMC,180621.40,A,0541.9354,N,10209.1163,E,10.8,179.6,260825,,,A*69
$GPRMC,180625.00,A,0541.9247,N,10209.1164,E,10.8,179.6,260825,,,A*6D
$GPRMC,180628.60,A,0541.9139,N,10209.1164,E,10.8,179.6,260825,,,A*6C
$GPRMC,180632.20,A,0541.9031,N,10209.1165,E,10.8,179.6,260825,,,A*6B
$GPRMC,180635.80,A,0541.8923,N,10209.1166,E,10.8,179.6,260825,,,A*6E
$GPRMC,180639.40,A,0541.8815,N,10209.1166,E,10.8,179.6,260825,,,A*6A
$GPRMC,180643.00,A,0541.8707,N,10209.1167,E,10.8,179.6,260825,,,A*6E
$GPRMC,180646.60,A,0541.8599,N,10209.1168,E,10.8,179.6,260825,,,A*67
$GPRMC,180650.20,A,0541.8491,N,10209.1168,E,10.8,179.6,260825,,,A*6D
$GPRMC,180653.80,A,0541.8383,N,10209.1169,E,10.8,179.7,260825,,,A*60
$GPRMC,180657.40,A,0541.8275,N,10209.1170,E,10.8,179.7,260825,,,A*68
$GPRMC,180701.00,A,0541.8167,N,10209.1170,E,10.8,179.7,260825,,,A*6E
$GPRMC,180704.60,A,0541.8059,N,10209.1171,E,10.8,179.7,260825,,,A*60
$GPRMC,180708.20,A,0541.7952,N,10209.1172,E,10.8,179.7,260825,,,A*66
$GPRMC,180711.80,A,0541.7844,N,10209.1172,E,10.8,179.7,260825,,,A*62
$GPRMC,180715.40,A,0541.7736,N,10209.1173,E,10.8,179.7,260825,,,A*61
$GPRMC,180719.00,A,0541.7628,N,10209.1174,E,10.8,179.7,260825,,,A*60
$GPRMC,180722.60,A,0541.7520,N,10209.1174,E,10.8,179.7,260825,,,A*65
$GPRMC,180726.20,A,0541.7412,N,10209.1175,E,10.8,179.7,260825,,,A*64
$GPRMC,180729.80,A,0541.7304,N,10209.1175,E,10.8,179.7,260825,,,A*61
$GPRMC,180733.40,A,0541.7196,N,10209.1176,E,10.8,179.7,260825,,,A*6C
$GPRMC,180737.00,A,0541.7088,N,10209.1177,E,10.8,179.7,260825,,,A*63
$GPRMC,180740.60,A,0541.6980,N,10209.1177,E,10.8,179.7,260825,,,A*65
$GPRMC,180744.20,A,0541.6872,N,10209.1178,E,10.8,179.7,260825,,,A*66
$GPRMC,180747.80,A,0541.6764,N,10209.1179,E,10.8,179.7,260825,,,A*66
$GPRMC,180751.40,A,0541.6657,N,10209.1179,E,10.8,179.7,260825,,,A*6C
$GPRMC,180755.00,A,0541.6549,N,10209.1180,E,10.8,179.7,260825,,,A*66
$GPRMC,180758.60,A,0541.6441,N,10209.1180,E,10.8,179.7,260825,,,A*64
$GPRMC,180802.20,A,0541.6333,N,10209.1181,E,10.8,179.7,260825,,,A*63
$GPRMC,180805.80,A,0541.6225,N,10209.1182,E,10.8,179.7,260825,,,A*6B
$GPRMC,180809.40,A,0541.6117,N,10209.1182,E,10.8,179.7,260825,,,A*69
$GPRMC,180813.00,A,0541.6009,N,10209.1183,E,10.8,179.3,260825,,,A*6D
$GPRMC,180816.60,A,0541.5901,N,10209.1184,E,10.8,179.6,260825,,,A*6E
$GPRMC,180820.20,A,0541.5793,N,10209.1185,E,10.8,179.6,260825,,,A*6B
$GPRMC,180823.80,A,0541.5685,N,10209.1186,E,10.8,179.6,260825,,,A*67
$GPRMC,180827.40,A,0541.5577,N,10209.1187,E,10.8,179.6,260825,,,A*60
$GPRMC,180831.00,A,0541.5470,N,10209.1188,E,10.8,179.6,260825,,,A*6A
$GPRMC,180834.60,A,0541.5362,N,10209.1188,E,10.8,179.6,260825,,,A*6D
$GPRMC,180838.20,A,0541.5254,N,10209.1189,E,10.8,179.6,260825,,,A*60
$GPRMC,180841.80,A,0541.5146,N,10209.1190,E,10.8,179.6,260825,,,A*6C
$GPRMC,180845.40,A,0541.5038,N,10209.1191,E,10.8,179.6,260825,,,A*6D
$GPRMC,180849.00,A,0541.4930,N,10209.1192,E,10.8,179.6,260825,,,A*66
$GPRMC,180852.60,A,0541.4822,N,10209.1192,E,10.8,179.6,260825,,,A*68
$GPRMC,180856.20,A,0541.4714,N,10209.1193,E,10.8,179.6,260825,,,A*63
$GPRMC,180859.80,A,0541.4606,N,10209.1194,E,10.8,179.6,260825,,,A*63
$GPRMC,180903.40,A,0541.4498,N,10209.1195,E,10.8,179.6,260825,,,A*65
$GPRMC,180907.00,A,0541.4390,N,10209.1195,E,10.8,179.6,260825,,,A*6A
$GPRMC,180910.60,A,0541.4282,N,10209.1196,E,10.8,179.6,260825,,,A*6B
$GPRMC,180914.20,A,0541.4175,N,10209.1197,E,10.8,179.6,260825,,,A*61
$GPRMC,180917.80,A,0541.4067,N,10209.1198,E,10.8,179.6,260825,,,A*65
$GPRMC,180921.40,A,0541.3959,N,10209.1199,E,10.8,179.6,260825,,,A*6E
$GPRMC,180925.00,A,0541.3851,N,10209.1199,E,10.8,179.6,260825,,,A*67
$GPRMC,180928.60,A,0541.3743,N,10209.1200,E,10.8,179.6,260825,,,A*63
$GPRMC,180932.20,A,0541.3635,N,10209.1201,E,10.8,179.6,260825,,,A*6D
$GPRMC,180935.80,A,0541.3527,N,10209.1202,E,10.8,179.6,260825,,,A*63
$GPRMC,180939.40,A,0541.3419,N,10209.1203,E,10.8,179.4,260825,,,A*6C
$GPRMC,180943.00,A,0541.3311,N,10209.1204,E,10.8,179.0,260825,,,A*69
$GPRMC,180946.60,A,0541.3203,N,10209.1206,E,10.8,177.1,260825,,,A*65
$GPRMC,180950.20,A,0541.3096,N,10209.1211,E,10.8,173.6,260825,,,A*6D
$GPRMC,180953.80,A,0541.2988,N,10209.1223,E,10.8,171.6,260825,,,A*60
$GPRMC,180957.40,A,0541.2882,N,10209.1239,E,10.8,171.6,260825,,,A*68
$GPRMC,181001.00,A,0541.2775,N,10209.1255,E,10.8,171.0,260825,,,A*6C
$GPRMC,181004.60,A,0541.2668,N,10209.1272,E,10.8,168.2,260825,,,A*6D
$GPRMC,181008.20,A,0541.2563,N,10209.1294,E,10.8,165.5,260825,,,A*6F
$GPRMC,181011.80,A,0541.2458,N,10209.1321,E,10.8,162.8,260825,,,A*61
$GPRMC,181015.40,A,0541.2355,N,10209.1353,E,10.8,161.6,260825,,,A*6B
$GPRMC,181019.00,A,0541.2253,N,10209.1388,E,10.8,161.6,260825,,,A*62
$GPRMC,181022.60,A,0541.2150,N,10209.1422,E,10.8,161.6,260825,,,A*6B
$GPRMC,181026.20,A,0541.2048,N,10209.1456,E,10.8,161.6,260825,,,A*60
$GPRMC,181029.80,A,0541.1946,N,10209.1490,E,10.8,161.6,260825,,,A*6B
$GPRMC,181033.40,A,0541.1843,N,10209.1525,E,10.8,161.6,260825,,,A*67
$GPRMC,181037.00,A,0541.1741,N,10209.1559,E,10.8,161.6,260825,,,A*61
$GPRMC,181040.60,A,0541.1638,N,10209.1593,E,10.8,161.6,260825,,,A*6E
$GPRMC,181044.20,A,0541.1536,N,10209.1627,E,10.8,161.6,260825,,,A*6F
$GPRMC,181047.80,A,0541.1434,N,10209.1661,E,10.8,161.6,260825,,,A*67
$GPRMC,181051.40,A,0541.1331,N,10209.1696,E,10.8,161.6,260825,,,A*66
$GPRMC,181055.00,A,0541.1229,N,10209.1730,E,10.8,161.6,260825,,,A*63
$GPRMC,181058.60,A,0541.1126,N,10209.1764,E,10.8,161.6,260825,,,A*65
$GPRMC,181102.20,A,0541.1024,N,10209.1798,E,10.8,161.6,260825,,,A*6F
$GPRMC,181105.80,A,0541.0922,N,10209.1833,E,10.8,161.6,260825,,,A*62
$GPRMC,181109.40,A,0541.0819,N,10209.1867,E,10.8,161.6,260825,,,A*6A
$GPRMC,181113.00,A,0541.0717,N,10209.1901,E,10.8,161.6,260825,,,A*65
$GPRMC,181116.60,A,0541.0614,N,10209.1935,E,10.8,161.6,260825,,,A*63
$GPRMC,181120.20,A,0541.0512,N,10209.1970,E,10.8,161.6,260825,,,A*66
$GPRMC,181123.80,A,0541.0410,N,10209.2004,E,10.8,161.6,260825,,,A*65
$GPRMC,181127.40,A,0541.0307,N,10209.2038,E,10.8,161.6,260825,,,A*63
$GPRMC,181131.00,A,0541.0205,N,10209.2072,E,10.8,161.6,260825,,,A*6D
$GPRMC,181134.60,A,0541.0102,N,10209.2107,E,10.8,161.6,260825,,,A*69
$GPRMC,181138.20,A,0541.0000,N,10209.2141,E,10.8,161.6,260825,,,A*60
$GPRMC,181141.80,A,0540.9898,N,10209.2175,E,10.8,161.6,260825,,,A*62
$GPRMC,181145.40,A,0540.9795,N,10209.2209,E,10.8,161.6,260825,,,A*60
$GPRMC,181149.00,A,0540.9693,N,10209.2244,E,10.8,161.6,260825,,,A*66
$GPRMC,181152.60,A,0540.9590,N,10209.2278,E,10.8,161.6,260825,,,A*65
$GPRMC,181156.20,A,0540.9488,N,10209.2312,E,10.8,161.6,260825,,,A*60
$GPRMC,181159.80,A,0540.9386,N,10209.2346,E,10.8,161.6,260825,,,A*6D
$GPRMC,181203.40,A,0540.9283,N,10209.2381,E,10.8,160.6,260825,,,A*63
$GPRMC,181207.00,A,0540.9181,N,10209.2417,E,10.8,160.2,260825,,,A*6E
$GPRMC,181210.60,A,0540.9080,N,10209.2453,E,10.8,160.2,260825,,,A*6E
$GPRMC,181214.20,A,0540.8978,N,10209.2490,E,10.8,160.2,260825,,,A*6E
$GPRMC,181217.80,A,0540.8877,N,10209.2527,E,10.8,160.2,260825,,,A*64
$GPRMC,181221.40,A,0540.8775,N,10209.2563,E,10.8,160.2,260825,,,A*60
$GPRMC,181225.00,A,0540.8674,N,10209.2600,E,10.8,162.7,260825,,,A*61
$GPRMC,181228.60,A,0540.8571,N,10209.2632,E,10.8,162.9,260825,,,A*63
$GPRMC,181232.20,A,0540.8467,N,10209.2664,E,10.8,162.7,260825,,,A*67
$GPRMC,181235.80,A,0540.8364,N,10209.2696,E,10.8,162.7,260825,,,A*63
$GPRMC,181239.40,A,0540.8261,N,10209.2728,E,10.8,162.0,260825,,,A*64
$GPRMC,181243.00,A,0540.8159,N,10209.2762,E,10.8,161.1,260825,,,A*69
$GPRMC,181246.60,A,0540.8057,N,10209.2797,E,10.8,161.1,260825,,,A*6F
$GPRMC,181250.20,A,0540.7955,N,10209.2832,E,10.8,161.1,260825,,,A*68
$GPRMC,181253.80,A,0540.7852,N,10209.2867,E,10.8,161.1,260825,,,A*67
$GPRMC,181257.40,A,0540.7750,N,10209.2902,E,10.8,161.1,260825,,,A*60
$GPRMC,181301.00,A,0540.7648,N,10209.2938,E,10.8,161.1,260825,,,A*67
$GPRMC,181304.60,A,0540.7546,N,10209.2973,E,10.8,161.1,260825,,,A*66
$GPRMC,181308.20,A,0540.7444,N,10209.3008,E,10.8,161.1,260825,,,A*69
$GPRMC,181311.80,A,0540.7342,N,10209.3043,E,10.8,161.1,260825,,,A*65
$GPRMC,181315.40,A,0540.7240,N,10209.3078,E,10.8,161.1,260825,,,A*66
$GPRMC,181319.00,A,0540.7138,N,10209.3113,E,10.8,161.1,260825,,,A*6E
$GPRMC,181322.60,A,0540.7036,N,10209.3148,E,10.8,161.1,260825,,,A*61
$GPRMC,181326.20,A,0540.6934,N,10209.3184,E,10.8,161.1,260825,,,A*6B
$GPRMC,181329.80,A,0540.6831,N,10209.3219,E,10.8,161.1,260825,,,A*6D
$GPRMC,181333.40,A,0540.6729,N,10209.3254,E,10.8,161.1,260825,,,A*65
$GPRMC,181337.00,A,0540.6627,N,10209.3289,E,10.8,161.1,260825,,,A*6A
$GPRMC,181340.60,A,0540.6525,N,10209.3324,E,10.8,161.1,260825,,,A*6B
$GPRMC,181344.20,A,0540.6423,N,10209.3359,E,10.8,161.1,260825,,,A*66
$GPRMC,181347.80,A,0540.6321,N,10209.3394,E,10.8,161.1,260825,,,A*6B
$GPRMC,181351.40,A,0540.6219,N,10209.3430,E,10.8,161.1,260825,,,A*63
$GPRMC,181355.00,A,0540.6117,N,10209.3465,E,10.8,161.1,260825,,,A*6E
$GPRMC,181358.60,A,0540.6015,N,10209.3500,E,10.8,161.4,260825,,,A*61
$GPRMC,181402.20,A,0540.5912,N,10209.3535,E,10.8,161.6,260825,,,A*64
$GPRMC,181405.80,A,0540.5810,N,10209.3569,E,10.8,161.6,260825,,,A*63
$GPRMC,181409.40,A,0540.5708,N,10209.3603,E,10.8,161.6,260825,,,A*6A
$GPRMC,181413.00,A,0540.5605,N,10209.3637,E,10.8,161.6,260825,,,A*6E
$GPRMC,181416.60,A,0540.5503,N,10209.3671,E,10.8,161.6,260825,,,A*6A
$GPRMC,181420.20,A,0540.5400,N,10209.3705,E,10.8,161.6,260825,,,A*6B
$GPRMC,181423.80,A,0540.5298,N,10209.3739,E,10.8,161.6,260825,,,A*6A
$GPRMC,181427.40,A,0540.5195,N,10209.3774,E,10.8,161.6,260825,,,A*65
$GPRMC,181431.00,A,0540.5093,N,10209.3808,E,10.8,161.6,260825,,,A*65
$GPRMC,181434.60,A,0540.4991,N,10209.3842,E,10.8,161.6,260825,,,A*62
$GPRMC,181438.20,A,0540.4888,N,10209.3876,E,10.8,161.6,260825,,,A*64
$GPRMC,181441.80,A,0540.4786,N,10209.3910,E,10.8,162.0,260825,,,A*65
$GPRMC,181445.40,A,0540.4683,N,10209.3944,E,10.8,162.3,260825,,,A*6B
$GPRMC,181449.00,A,0540.4580,N,10209.3977,E,10.8,162.3,260825,,,A*63
$GPRMC,181452.60,A,0540.4477,N,10209.4009,E,10.8,162.3,260825,,,A*61
$GPRMC,181456.20,A,0540.4375,N,10209.4042,E,10.8,162.5,260825,,,A*6D
$GPRMC,181459.80,A,0540.4272,N,10209.4075,E,10.8,162.9,260825,,,A*66
$GPRMC,181503.40,A,0540.4168,N,10209.4107,E,10.8,163.0,260825,,,A*60
$GPRMC,181507.00,A,0540.4065,N,10209.4138,E,10.8,163.1,260825,,,A*61
$GPRMC,181510.60,A,0540.3962,N,10209.4170,E,10.8,166.3,260825,,,A*63
$GPRMC,181514.20,A,0540.3857,N,10209.4196,E,10.8,169.7,260825,,,A*67
$GPRMC,181517.80,A,0540.3751,N,10209.4215,E,10.8,173.1,260825,,,A*62
$GPRMC,181521.40,A,0540.3644,N,10209.4228,E,10.8,175.0,260825,,,A*67
$GPRMC,181525.00,A,0540.3537,N,10209.4238,E,10.8,177.6,260825,,,A*65
$GPRMC,181528.60,A,0540.3429,N,10209.4242,E,10.8,180.9,260825,,,A*6A
$GPRMC,181532.20,A,0540.3321,N,10209.4241,E,10.8,180.9,260825,,,A*69
$GPRMC,181535.80,A,0540.3213,N,10209.4239,E,10.8,180.9,260825,,,A*6B
$GPRMC,181539.40,A,0540.3105,N,10209.4237,E,10.8,180.9,260825,,,A*61
$GPRMC,181543.00,A,0540.2997,N,10209.4236,E,10.8,180.9,260825,,,A*6B
$GPRMC,181546.60,A,0540.2889,N,10209.4234,E,10.8,180.9,260825,,,A*64
$GPRMC,181550.20,A,0540.2781,N,10209.4232,E,10.8,180.9,260825,,,A*66
$GPRMC,181553.80,A,0540.2674,N,10209.4231,E,10.8,180.9,260825,,,A*67
$GPRMC,181557.40,A,0540.2566,N,10209.4229,E,10.8,180.9,260825,,,A*66
$GPRMC,181601.00,A,0540.2458,N,10209.4227,E,10.8,180.9,260825,,,A*60
$GPRMC,181604.60,A,0540.2350,N,10209.4225,E,10.8,180.9,260825,,,A*6E
$GPRMC,181608.20,A,0540.2242,N,10209.4224,E,10.8,180.9,260825,,,A*65
$GPRMC,181611.80,A,0540.2134,N,10209.4222,E,10.8,180.9,260825,,,A*63
$GPRMC,181615.40,A,0540.2026,N,10209.4220,E,10.8,180.9,260825,,,A*6B
$GPRMC,181619.00,A,0540.1918,N,10209.4219,E,10.8,180.9,260825,,,A*6E
$GPRMC,181622.60,A,0540.1810,N,10209.4217,E,10.8,180.9,260825,,,A*67
$GPRMC,181626.20,A,0540.1702,N,10209.4215,E,10.8,180.9,260825,,,A*69
$GPRMC,181629.80,A,0540.1594,N,10209.4214,E,10.8,180.9,260825,,,A*60
$GPRMC,181633.40,A,0540.1487,N,10209.4212,E,10.8,180.9,260825,,,A*62
$GPRMC,181637.00,A,0540.1379,N,10209.4210,E,10.8,180.9,260825,,,A*66
$GPRMC,181640.60,A,0540.1271,N,10209.4209,E,10.8,180.9,260825,,,A*61
$GPRMC,181644.20,A,0540.1163,N,10209.4207,E,10.8,180.9,260825,,,A*6F
$GPRMC,181647.80,A,0540.1055,N,10209.4205,E,10.8,180.9,260825,,,A*60
$GPRMC,181651.40,A,0540.0947,N,10209.4204,E,10.8,180.9,260825,,,A*61
$GPRMC,181655.00,A,0540.0839,N,10209.4202,E,10.8,180.9,260825,,,A*6F
$GPRMC,181658.60,A,0540.0731,N,10209.4200,E,10.8,180.9,260825,,,A*61
$GPRMC,181702.20,A,0540.0623,N,10209.4199,E,10.8,180.9,260825,,,A*6A
$GPRMC,181705.80,A,0540.0515,N,10209.4197,E,10.8,180.9,260825,,,A*6F
$GPRMC,181709.40,A,0540.0407,N,10209.4195,E,10.8,180.8,260825,,,A*6E
$GPRMC,181713.00,A,0540.0300,N,10209.4194,E,10.8,180.4,260825,,,A*6C
$GPRMC,181716.60,A,0540.0192,N,10209.4193,E,10.8,180.4,260825,,,A*61
$GPRMC,181720.20,A,0540.0084,N,10209.4192,E,10.8,180.4,260825,,,A*67
$GPRMC,181723.80,A,0539.9976,N,10209.4192,E,10.8,180.4,260825,,,A*6D
$GPRMC,181727.40,A,0539.9868,N,10209.4191,E,10.8,180.4,260825,,,A*68
$GPRMC,181731.00,A,0539.9760,N,10209.4190,E,10.8,180.4,260825,,,A*6D
$GPRMC,181734.60,A,0539.9652,N,10209.4190,E,10.8,180.4,260825,,,A*6E
$GPRMC,181738.20,A,0539.9544,N,10209.4189,E,10.8,180.4,260825,,,A*6A
$GPRMC,181741.80,A,0539.9436,N,10209.4188,E,10.8,180.4,260825,,,A*6B
$GPRMC,181745.40,A,0539.9328,N,10209.4188,E,10.8,180.4,260825,,,A*6B
$GPRMC,181749.00,A,0539.9220,N,10209.4187,E,10.8,181.0,260825,,,A*60
$GPRMC,181752.60,A,0539.9113,N,10209.4185,E,10.8,181.1,260825,,,A*6C
$GPRMC,181756.20,A,0539.9005,N,10209.4183,E,10.8,181.1,260825,,,A*6C
$GPRMC,181759.80,A,0539.8897,N,10209.4181,E,10.8,181.1,260825,,,A*69
$GPRMC,181803.40,A,0539.8789,N,10209.4179,E,10.8,181.1,260825,,,A*62
$GPRMC,181807.00,A,0539.8681,N,10209.4177,E,10.8,181.1,260825,,,A*65
$GPRMC,181810.60,A,0539.8573,N,10209.4174,E,10.8,181.1,260825,,,A*68
$GPRMC,181814.20,A,0539.8465,N,10209.4172,E,10.8,181.1,260825,,,A*68
$GPRMC,181817.80,A,0539.8357,N,10209.4170,E,10.8,181.1,260825,,,A*65
